!AIVDM,1,1,,A,B2HLCnh0EGtfE?6jL;9IM7v000000,0*1A
$GPRMC,192118.00,A,4734.810149080575,N,300.9080267957987,W,10.45,166.5,160524,,,A*7C
!AIVDM,1,1,,A,B6k`<500SotgsR6jCL84<3N000000,0*40
$GPRMC,192119.00,A,4734.803618471096,N,300.905828644358,W,10.14,166.5,160524,,,A*43
!AIVDM,1,1,,A,B3nIVNh0WGtbe0VjsLCPNkv000000,0*20
$GPRMC,192120.00,A,4734.797087860918,N,300.903630502057,W,13.34,168.8,160524,,,A*46
!AIVDM,1,1,,A,B4jh@jh0B7tKN46jaWQNq;v000000,0*59
!AIVDM,1,1,,A,B;3O78h0FGtPT>Vj8333:LN000000,0*34
!AIVDM,1,1,,A,B7vvR<@0?oti4l6jEV>PV0N000000,0*51
$GPRMC,192122.00,A,4734.790557250039,N,300.9014323688957,W,14.33,165.3,160524,,,A*77
$GPRMC,192123.00,A,4734.784026638461,N,300.8992342448739,W,12.13,167,160524,,,A*61
$GPRMC,192124.00,A,4734.777496026182,N,300.89703612999165,W,11.63,168.8,160524,,,A*48
!AIVDM,1,1,,A,B2<Kt0@0@otcLkVjAsONFiv000000,0*5C
!AIVDM,1,1,,A,B2c2MRh0SGtMmOVicK5Hm7N000000,0*31
$GPRMC,192125.00,A,4734.770965413204,N,300.89483802424877,W,10.52,167.5,160524,,,A*44
!AIVDM,1,1,,A,B;e1i4@0SWtTCG6jSOR<9hN000000,0*37
!AIVDM,1,1,,A,B<eLiW@0?WtJAw6iibt9p7v000000,0*77
$GPRMC,192127.00,A,4734.764434799526,N,300.8926399276453,W,10.09,167,160524,,,A*60
$GPRMC,192128.00,A,4734.757904185148,N,300.8904418401811,W,13.74,168.1,160524,,,A*7D
!AIVDM,1,1,,A,B;hTAP00Got`oi6juVF<AhN000000,0*2A
!AIVDM,1,1,,A,B>G68W009Wtdh=VitVa2lmN000000,0*6E
!AIVDM,1,1,,A,B2HLCnh0CWtfI16jKfiHi7N000000,0*19
$GPRMC,192130.00,A,4734.75137357007,N,300.88824376185613,W,13.54,165.6,160524,,,A*75
$GPRMC,192131.00,A,4734.744842954292,N,300.8860456926702,W,9.52,169.6,160524,,,A*41
$GPRMC,192132.00,A,4734.738312337815,N,300.88384763262343,W,12.41,169.2,160524,,,A*47
!AIVDM,1,1,,A,B6k`<500`Gtgth6jD@04h3v000000,0*9
$GPRMC,192133.00,A,4734.731781720638,N,300.88164958171564,W,13.03,166.7,160524,,,A*47
!AIVDM,1,1,,A,B7vvR<@08Gti1N6jER:Pr0v000000,0*45
$GPRMC,192135.00,A,4734.72525110276,N,300.8794515399468,W,10.43,167.5,160524,,,A*4F
!AIVDM,1,1,,A,B4jh@jh08otKOc6jaEeQE=v000000,0*26
!AIVDM,1,1,,A,B3nIVNh0PotbdW6jt@CObjv000000,0*30
!AIVDM,1,1,,A,B;3O78h0C7tPQ0Vj8BO3JLN000000,0*37
$GPRMC,192136.00,A,4734.718720484183,N,300.8772535073167,W,12.08,167.1,160524,,,A*7F
$GPRMC,192137.00,A,4734.712189864906,N,300.87505548382546,W,12.01,165.8,160524,,,A*41
!AIVDM,1,1,,A,B<eLiW@0=WtJC3Vij1h:48N000000,0*6F
$GPRMC,192138.00,A,4734.705659244929,N,300.87285746947293,W,11.56,167.9,160524,,,A*4A
!AIVDM,1,1,,A,B2<Kt0@0GGtcLJVjBDONFiv000000,0*66
!AIVDM,1,1,,A,B2c2MRh0W7tMsQ6ibhEHU6v000000,0*76
$GPRMC,192139.00,A,4734.699128624253,N,300.87065946425906,W,9.52,168.4,160524,,,A*79
!AIVDM,1,1,,A,B;e1i4@0VotT?CVjS8B<MhN000000,0*1
!AIVDM,1,1,,A,B>G68W007WtdjeVitRe1dlv000000,0*8
!AIVDM,1,1,,A,B2HLCnh0JotfLjVjKBEIM7v000000,0*3
$GPRMC,192141.00,A,4734.692598002876,N,300.8684614681837,W,14.14,167.4,160524,,,A*75
$GPRMC,192142.00,A,4734.6860673808,N,300.86626348124685,W,11.47,167.7,160524,,,A*43
!AIVDM,1,1,,A,B;hTAP00GWt`mW6juJ6;qgv000000,0*42
$GPRMC,192143.00,A,4734.6795367580235,N,300.8640655034484,W,13,165.9,160524,,,A*61
$GPRMC,192144.00,A,4734.673006134548,N,300.8618675347883,W,13.22,167,160524,,,A*63
$GPRMC,192145.00,A,4734.666475510372,N,300.85966957526654,W,13.5,168.5,160524,,,A*73
!AIVDM,1,1,,A,B7vvR<@0?othv8VjEN6QR1N000000,0*32
!AIVDM,1,1,,A,B4jh@jh0CGtKQAVja3qOA<N000000,0*68
!AIVDM,1,1,,A,B6k`<500NWtguvVjE3p4d3v000000,0*76
$GPRMC,192147.00,A,4734.659944885496,N,300.8574716248829,W,11.06,168.7,160524,,,A*77
!AIVDM,1,1,,A,B;3O78h0DWtPMj6j8Qo2bKv000000,0*53
$GPRMC,192148.00,A,4734.653414259921,N,300.85527368363745,W,10.77,165.2,160524,,,A*4C
$GPRMC,192149.00,A,4734.646883633646,N,300.85307575153,W,14.17,166.8,160524,,,A*7F
!AIVDM,1,1,,A,B<eLiW@0;WtJD86ijH`9p7v000000,0*4
$GPRMC,192150.00,A,4734.640353006672,N,300.8508778285606,W,10.81,166.7,160524,,,A*7F
!AIVDM,1,1,,A,B3nIVNh0V7tbd>6ju4?NjjN000000,0*3F
$GPRMC,192152.00,A,4734.633822378996,N,300.8486799147291,W,13.94,165,160524,,,A*69
!AIVDM,1,1,,A,B2c2MRh0WGtN1R6ib5UJ18N000000,0*59
!AIVDM,1,1,,A,B;e1i4@0TWtT7<6jRIn<IhN000000,0*74
$GPRMC,192153.00,A,4734.627291750622,N,300.84648201003546,W,11.5,168.9,160524,,,A*7D
!AIVDM,1,1,,A,B2<Kt0@0DWtcL16jBeON2iv000000,0*3B
$GPRMC,192154.00,A,4734.620761121549,N,300.84428411447954,W,14.45,169.1,160524,,,A*49
!AIVDM,1,1,,A,B>G68W004Wtdm=VitNe3pnN000000,0*64
!AIVDM,1,1,,A,B;hTAP00Lot`iCVju1R:Ifv000000,0*26
!AIVDM,1,1,,A,B2HLCnh0K7tfPT6jJmqJm8v000000,0*2E
$GPRMC,192155.00,A,4734.614230491774,N,300.84208622806136,W,10.65,168.1,160524,,,A*48
$GPRMC,192156.00,A,4734.607699861301,N,300.83988835078077,W,14.47,169.2,160524,,,A*44
$GPRMC,192157.00,A,4734.601169230127,N,300.83769048263775,W,13.07,168.5,160524,,,A*48
!AIVDM,1,1,,A,B7vvR<@0?7thrjVjEIvR21v000000,0*20
$GPRMC,192159.00,A,4734.594638598254,N,300.83549262363226,W,10.81,169.5,160524,,,A*4C
!AIVDM,1,1,,A,B6k`<500b7tgw<VjEoh342N000000,0*58
!AIVDM,1,1,,A,B4jh@jh0:7tKRpVj`j5QM=v000000,0*64
$GPRMC,192200.00,A,4734.58810796568,N,300.8332947737641,W,13.63,168.4,160524,,,A*4C
$GPRMC,192201.00,A,4734.5815773324075,N,300.8310969330334,W,14.22,164.7,160524,,,A*42
!AIVDM,1,1,,A,B3nIVNh0aotbcm6jup;P:kN000000,0*B
$GPRMC,192202.00,A,4734.5750466984355,N,300.8288991014399,W,9.68,169.3,160524,,,A*77
!AIVDM,1,1,,A,B;3O78h0BGtPJT6j8iC3FLN000000,0*72
!AIVDM,1,1,,A,B<eLiW@0?WtJE<6ijgL9T7v000000,0*22
$GPRMC,192204.00,A,4734.568516063763,N,300.8267012789836,W,13.91,169,160524,,,A*64
!AIVDM,1,1,,A,B>G68W00@7tdoeVitJi2dmN000000,0*34
$GPRMC,192205.00,A,4734.561985428391,N,300.8245034656644,W,12.87,168.5,160524,,,A*78
!AIVDM,1,1,,A,B;e1i4@0WGtSw56jQcJ<uhv000000,0*20
$GPRMC,192206.00,A,4734.55545479232,N,300.8223056614823,W,14.4,165.6,160524,,,A*7B
!AIVDM,1,1,,A,B2c2MRh0aGtN7SViaJmH96v000000,0*70
$GPRMC,192207.00,A,4734.548924155549,N,300.8201078664372,W,11.99,165.7,160524,,,A*7C
!AIVDM,1,1,,A,B2<Kt0@0@WtcK`6jC6ONRjN000000,0*60
!AIVDM,1,1,,A,B;hTAP00JWt`e0Vjt`v;1gN000000,0*53
$GPRMC,192208.00,A,4734.542393518078,N,300.8179100805289,W,9.72,168.4,160524,,,A*49
!AIVDM,1,1,,A,B2HLCnh0C7tfTF6jJIMJe8v000000,0*20
$GPRMC,192210.00,A,4734.535862879908,N,300.81571230375755,W,13.55,164.9,160524,,,A*4B
$GPRMC,192211.00,A,4734.529332241037,N,300.8135145361229,W,10.31,168.1,160524,,,A*77
!AIVDM,1,1,,A,B6k`<500RGth0JVjFc`4D3N000000,0*57
!AIVDM,1,1,,A,B7vvR<@0AGthoM6jEErOAwN000000,0*6C
!AIVDM,1,1,,A,B4jh@jh09GtKTOVj`PEQe>N000000,0*77
$GPRMC,192212.00,A,4734.522801601467,N,300.811316777625,W,14.47,167.2,160524,,,A*44
!AIVDM,1,1,,A,B3nIVNh0botbcL6jvd;P>kN000000,0*3A
!AIVDM,1,1,,A,B;3O78h0F7tPGF6j90c3NLN000000,0*69
$GPRMC,192213.00,A,4734.516270961198,N,300.8091190282637,W,11.84,168.1,160524,,,A*7C
$GPRMC,192215.00,A,4734.509740320228,N,300.80692128803895,W,11.75,169.6,160524,,,A*4E
!AIVDM,1,1,,A,B;e1i4@0aotSnuVjPtv=9hv000000,0*60
$GPRMC,192216.00,A,4734.50320967856,N,300.80472355695065,W,14.17,167.2,160524,,,A*75
!AIVDM,1,1,,A,B>G68W00:otdr=VitFi0pkv000000,0*77
$GPRMC,192217.00,A,4734.4966790361905,N,300.8025258349988,W,12.55,168.9,160524,,,A*48
!AIVDM,1,1,,A,B<eLiW@0?7tJF@Vik6@9T7v000000,0*1
!AIVDM,1,1,,A,B2c2MRh0SGtN=TVi`h1IE7N000000,0*74
$GPRMC,192218.00,A,4734.490148393123,N,300.80032812218326,W,11.59,165.8,160524,,,A*4F
!AIVDM,1,1,,A,B2<Kt0@0AGtcK?6jCOOMbiN000000,0*67
$GPRMC,192219.00,A,4734.483617749354,N,300.798130418504,W,10.76,166.3,160524,,,A*42
!AIVDM,1,1,,A,B2HLCnh0Iotf`7VjIu1KU9N000000,0*1C
$GPRMC,192221.00,A,4734.477087104888,N,300.79593272396096,W,13.67,166.6,160524,,,A*43
!AIVDM,1,1,,A,B;hTAP00Aot``e6jt@J=9hv000000,0*75
$GPRMC,192222.00,A,4734.47055645972,N,300.79373503855396,W,14.48,168.9,160524,,,A*7B
!AIVDM,1,1,,A,B7vvR<@0;othl76jEAnR21v000000,0*4F
$GPRMC,192223.00,A,4734.464025813852,N,300.79153736228307,W,10.16,166,160524,,,A*5C
!AIVDM,1,1,,A,B4jh@jh0<WtKV6Vj`>QO5<N000000,0*2F
$GPRMC,192224.00,A,4734.457495167286,N,300.7893396951481,W,11.59,165.7,160524,,,A*73
!AIVDM,1,1,,A,B6k`<500bGth1`VjGOP584N000000,0*2B
!AIVDM,1,1,,A,B;3O78h0<otPD86j9@72:KN000000,0*60
$GPRMC,192226.00,A,4734.45096452002,N,300.7871420371491,W,12.94,167.1,160524,,,A*45
!AIVDM,1,1,,A,B>G68W00<WtdteVitBi2DmN000000,0*1B
$GPRMC,192227.00,A,4734.444433872054,N,300.7849443882859,W,10.27,165.3,160524,,,A*7C
!AIVDM,1,1,,A,B3nIVNh0RWtbc36jwP7OvkN000000,0*23
!AIVDM,1,1,,A,B2c2MRh0VotNCV6i`5AHq7N000000,0*5D
$GPRMC,192228.00,A,4734.437903223388,N,300.78274674855845,W,12.12,169.5,160524,,,A*46
!AIVDM,1,1,,A,5;e1i4D00001<To337;79<Tl4U<0000000000016000000000;000000000000000000000,0*4
!AIVDM,1,1,,A,B;e1i4@0cotcmQ6kA6BH1qv000000,0*17
!AIVDM,1,1,,A,B<eLiW@0=otJGE6ikM49h7v000000,0*C
$GPRMC,192230.00,A,4734.431372574024,N,300.7805491179667,W,10.22,167.8,160524,,,A*73
$GPRMC,192231.00,A,4734.424841923959,N,300.7783514965106,W,13.87,165,160524,,,A*60
$GPRMC,192232.00,A,4734.418311273194,N,300.77615388419,W,13.24,168.3,160524,,,A*77
$GPRMC,192233.00,A,4734.411780621731,N,300.7739562810049,W,10.2,167.8,160524,,,A*48
!AIVDM,1,1,,A,B2<Kt0@0E7tcJn6jCpSO6jN000000,0*35
$GPRMC,192234.00,A,4734.405249969568,N,300.7717586869552,W,11.43,169,160524,,,A*6C
!AIVDM,1,1,,A,B4jh@jh0@GtKWeVjWtePU=N000000,0*26
!AIVDM,1,1,,A,B;hTAP00CWt`TIVjson;Mgv000000,0*46
!AIVDM,1,1,,A,B2HLCnh0FWtfcq6jIPaJa8v000000,0*77
$GPRMC,192235.00,A,4734.398719316705,N,300.76956110204077,W,10.93,167.3,160524,,,A*4F
!AIVDM,1,1,,A,B;3O78h0?GtP@qVj9OS3>LN000000,0*F
!AIVDM,1,1,,A,B7vvR<@0;7thhiVjE=jOMwv000000,0*71
$GPRMC,192237.00,A,4734.392188663143,N,300.7673635262617,W,10.02,168.1,160524,,,A*71
!AIVDM,1,1,,A,B6k`<500UGth2o6jHCH4t3v000000,0*19
$GPRMC,192238.00,A,4734.3856580088805,N,300.7651659596178,W,11.03,168.9,160524,,,A*4A
!AIVDM,1,1,,A,B>G68W005Wtdw>6it>m3Dmv000000,0*6B
$GPRMC,192239.00,A,4734.379127353919,N,300.7629684021089,W,9.98,169.5,160524,,,A*41
$GPRMC,192240.00,A,4734.372596698257,N,300.76077085373515,W,14.1,164.7,160524,,,A*72
!AIVDM,1,1,,A,B3nIVNh0Q7tbbaVk0D7NJiv000000,0*26
$GPRMC,192242.00,A,4734.366066041897,N,300.7585733144963,W,9.55,166.6,160524,,,A*4A
!AIVDM,1,1,,A,B;e1i4@0W7tcgS6k@n:IArv000000,0*20
!AIVDM,1,1,,A,B2c2MRh0V7tNIW6iWJQI=7N000000,0*1B
$GPRMC,192243.00,A,4734.359535384837,N,300.75637578439245,W,10.27,165.8,160524,,,A*46
!AIVDM,1,1,,A,B<eLiW@0?7tJHI6ikkt907N000000,0*53
$GPRMC,192244.00,A,4734.353004727077,N,300.75417826342334,W,12.19,167.4,160524,,,A*46
!AIVDM,1,1,,A,B4jh@jh0=GtKaD6jWbqQ1=v000000,0*73
$GPRMC,192246.00,A,4734.346474068618,N,300.75198075158903,W,14.42,166,160524,,,A*58
$GPRMC,192247.00,A,4734.33994340946,N,300.7497832488894,W,9.72,167.5,160524,,,A*70
!AIVDM,1,1,,A,B7vvR<@0C7theKVjE9bPJ0N000000,0*4D
!AIVDM,1,1,,A,B2<Kt0@0CGtcJM6jDASLnhv000000,0*37
$GPRMC,192248.00,A,4734.333412749601,N,300.7475857553243,W,10.79,166.8,160524,,,A*79
!AIVDM,1,1,,A,B;hTAP00FWt`P66jsOB<5hN000000,0*1C
!AIVDM,1,1,,A,B;3O78h0EGtP=cVj9fs1NJv000000,0*5F
!AIVDM,1,1,,A,B2HLCnh0FotfgbVjI4=JU8N000000,0*C
!AIVDM,1,1,,A,B6k`<500QWth456jI7@4d3v000000,0*3C
$GPRMC,192250.00,A,4734.326882089043,N,300.74538827089384,W,13.15,169.5,160524,,,A*42
!AIVDM,1,1,,A,B>G68W004Gte1f6it:m0pkv000000,0*50
$GPRMC,192251.00,A,4734.320351427786,N,300.7431907955978,W,14.19,164.8,160524,,,A*7B
$GPRMC,192252.00,A,4734.3138207658285,N,300.74099332943615,W,13.99,167.4,160524,,,A*73
$GPRMC,192253.00,A,4734.307290103173,N,300.73879587240884,W,12.6,166.6,160524,,,A*71
!AIVDM,1,1,,A,B3nIVNh0O7tbb@Vk183NVjN000000,0*47
!AIVDM,1,1,,A,B;e1i4@0dWtcSWVk@EvHMqv000000,0*4A
!AIVDM,1,1,,A,5;e1i4D00001<To337;79<Tl4U<0000000000016000000000;000000000000000000000,0*4
$GPRMC,192254.00,A,4734.300759439816,N,300.7365984245158,W,10.53,168.3,160524,,,A*79
!AIVDM,1,1,,A,B2c2MRh0QotNO`6iVgiIq7v000000,0*15
$GPRMC,192256.00,A,4734.294228775761,N,300.7344009857569,W,12.9,166.2,160524,,,A*42
!AIVDM,1,1,,A,B4jh@jh0:WtKbs6jWI5QA=v000000,0*4F
$GPRMC,192257.00,A,4734.287698111007,N,300.73220355613216,W,13.57,168.9,160524,,,A*49
!AIVDM,1,1,,A,B7vvR<@077thb66jE5VQF1N000000,0*17
!AIVDM,1,1,,A,B<eLiW@0DotJIMVil:h7T6N000000,0*34
$GPRMC,192258.00,A,4734.281167445552,N,300.7300061356414,W,12.22,166.2,160524,,,A*74
!AIVDM,1,1,,A,B;hTAP00I7t`KjVjs6f;qgv000000,0*7D
$GPRMC,192259.00,A,4734.274636779398,N,300.7278087242846,W,12.57,164.8,160524,,,A*73
!AIVDM,1,1,,A,B;3O78h0>otP:MVj9vG2vKv000000,0*3B
!AIVDM,1,1,,A,B6k`<500bGth5C6jIs85p4v000000,0*46
!AIVDM,1,1,,A,B>G68W00?ote4>6it6m3@mv000000,0*17
!AIVDM,1,1,,A,B2<Kt0@0C7tcJ46jDbSMriv000000,0*1
$GPRMC,192301.00,A,4734.268106112544,N,300.72561132206175,W,12.94,165.4,160524,,,A*43
$GPRMC,192302.00,A,4734.261575444992,N,300.7234139289727,W,11.16,166,160524,,,A*60
$GPRMC,192303.00,A,4734.25504477674,N,300.7212165450174,W,14.07,164.8,160524,,,A*4C
!AIVDM,1,1,,A,B2HLCnh0DWtfkLVjHWiIA7N000000,0*3A
!AIVDM,1,1,,A,B3nIVNh0P7tbaoVk1swNvjN000000,0*5B
$GPRMC,192305.00,A,4734.248514107789,N,300.71901917019574,W,14.27,169.4,160524,,,A*48
$GPRMC,192306.00,A,4734.241983438137,N,300.71682180450773,W,13.81,167.3,160524,,,A*46
!AIVDM,1,1,,A,B4jh@jh0A7tKdR6jW7EQ==v000000,0*1
$GPRMC,192307.00,A,4734.235452767787,N,300.7146244479532,W,10.2,164.7,160524,,,A*47
$GPRMC,192308.00,A,4734.228922096737,N,300.7124271005322,W,10.88,166.8,160524,,,A*79
!AIVDM,1,1,,A,B;e1i4@0eGtcGcVk?mfH5qv000000,0*44
!AIVDM,1,1,,A,B2c2MRh0`GtNUa6iV51HQ6v000000,0*3D
$GPRMC,192309.00,A,4734.222391424988,N,300.7102297622446,W,13.94,166.4,160524,,,A*7F
$GPRMC,192311.00,A,4734.215860752539,N,300.70803243309024,W,9.6,166.1,160524,,,A*4B
!AIVDM,1,1,,A,B7vvR<@0:7thVh6jE1ROewv000000,0*33
$GPRMC,192312.00,A,4734.20933007939,N,300.70583511306916,W,11.97,168.3,160524,,,A*7F
!AIVDM,1,1,,A,B2<Kt0@0?GtcIc6jE3SLRhN000000,0*11
!AIVDM,1,1,,A,B;hTAP00JGt`GOVjrf::=fv000000,0*66
!AIVDM,1,1,,A,H;hTAP0,0*48
!AIVDM,1,1,,A,B<eLiW@0AWtJJR6ilQT806N000000,0*49
!AIVDM,1,1,,A,B6k`<500WGth6QVjJg0342N000000,0*61
$GPRMC,192313.00,A,4734.202799405543,N,300.7036378021813,W,13.78,165.6,160524,,,A*7E
!AIVDM,1,1,,A,B>G68W00@7te6f6it2q3Dmv000000,0*76
!AIVDM,1,1,,A,B;3O78h0CotP7?6j:=g3VLN000000,0*2F
$GPRMC,192315.00,A,4734.196268730996,N,300.7014405004265,W,11.6,165.4,160524,,,A*44
!AIVDM,1,1,,A,B3nIVNh0SotbaNVk2gwOVjv000000,0*2F
$GPRMC,192316.00,A,4734.18973805575,N,300.69924320780467,W,12.27,168.3,160524,,,A*7E
!AIVDM,1,1,,A,B2HLCnh0FGtfo>6jH;EJq8v000000,0*7A
!AIVDM,1,1,,A,B4jh@jh0BotKf96jVmQPI=N000000,0*31
$GPRMC,192318.00,A,4734.183207379803,N,300.69704592431583,W,11.1,168,160524,,,A*6C
$GPRMC,192319.00,A,4734.1766767031595,N,300.69484864995997,W,10.69,169.2,160524,,,A*78
!AIVDM,1,1,,A,B2c2MRh0aWtNcbViUJAHM6v000000,0*69
$GPRMC,192320.00,A,4734.170146025814,N,300.69265138473685,W,9.67,165.7,160524,,,A*79
$GPRMC,192321.00,A,4734.16361534777,N,300.6904541286465,W,14.05,165.6,160524,,,A*47
!AIVDM,1,1,,A,B;e1i4@0SWtcBeVk?`BHMqv000000,0*30
$GPRMC,192322.00,A,4734.1570846690265,N,300.6882568816888,W,12.46,167.1,160524,,,A*49
!AIVDM,1,1,,A,B;hTAP00CGt`C<6jrEV;mgv000000,0*67
$GPRMC,192323.00,A,4734.150553989585,N,300.6860596438637,W,10.1,168.6,160524,,,A*46
!AIVDM,1,1,,A,B2<Kt0@0EWtcIB6jELSMBiN000000,0*35
$GPRMC,192325.00,A,4734.144023309443,N,300.6838624151711,W,12.64,166.3,160524,,,A*7C
!AIVDM,1,1,,A,B7vvR<@08GthSJVjDuJPb0v000000,0*4
$GPRMC,192326.00,A,4734.137492628602,N,300.681665195611,W,11.1,167.4,160524,,,A*74
!AIVDM,1,1,,A,B<eLiW@0<GtJKV6ilpH7d6N000000,0*47
!AIVDM,1,1,,A,B>G68W007ote9>6isvq2PmN000000,0*60
!AIVDM,1,1,,A,B6k`<500Q7th7gVjKRp302N000000,0*50
$GPRMC,192327.00,A,4734.13096194706,N,300.6794679851833,W,13.36,165.3,160524,,,A*45
!AIVDM,1,1,,A,B4jh@jh08otKggVjVSeQQ>N000000,0*64
!AIVDM,1,1,,A,B;3O78h0CGtP416j:M;3FLN000000,0*36
!AIVDM,1,1,,A,B3nIVNh0S7tba56k3SsOrkN000000,0*40
$GPRMC,192328.00,A,4734.1244312648205,N,300.6772707838879,W,11.32,166.4,160524,,,A*47
$GPRMC,192330.00,A,4734.117900581882,N,300.6750735917247,W,12.93,164.9,160524,,,A*7D
!AIVDM,1,1,,A,B2c2MRh0dGtNicViTgMHq7N000000,0*52
$GPRMC,192331.00,A,4734.111369898243,N,300.67287640869375,W,11.15,166.7,160524,,,A*4F
!AIVDM,1,1,,A,B2HLCnh0I7tfrwVjGfuII7v000000,0*67
$GPRMC,192332.00,A,4734.104839213905,N,300.6706792347948,W,9.63,167.8,160524,,,A*46
!AIVDM,1,1,,A,B;e1i4@0b7tc8i6k?=NHAqv000000,0*2A
$GPRMC,192334.00,A,4734.098308528867,N,300.6684820700279,W,11.81,166.5,160524,,,A*7D
$GPRMC,192335.00,A,4734.0885125,N,300.66518634,W,10.96,174.9,160524,,,A*7B
!AIVDM,1,1,,A,B;hTAP00MGt`A26jr9B<qhv000000,0*19
!AIVDM,1,1,,A,B2<Kt0@0H7tcHq6jEmSNjjN000000,0*63
$GPRMC,192336.00,A,4734.085148969662,N,300.6647445957833,W,9.51,174,160524,,,A*53
!AIVDM,1,1,,A,B<eLiW@0=WtJLbVim?@7t6N000000,0*53
$GPRMC,192338.00,A,4734.078421908904,N,300.6638611101868,W,10.99,174.5,160524,,,A*74
!AIVDM,1,1,,A,B4jh@jh0>GtKiFVjVAqQE=v000000,0*4C
!AIVDM,1,1,,A,B3nIVNh0R7tb`d6k4GoONjv000000,0*1B
$GPRMC,192339.00,A,4734.071694848031,N,300.6629776283726,W,9.55,177,160524,,,A*56
!AIVDM,1,1,,A,B7vvR<@0;GthP4VjDqFQ:0v000000,0*2B
!AIVDM,1,1,,A,B>G68W007Wte;f6isru1llv000000,0*4
$GPRMC,192340.00,A,4734.064967787044,N,300.6620941503407,W,13.3,176.9,160524,,,A*43
!AIVDM,1,1,,A,B6k`<500SGth8uVjLFh302N000000,0*34
$GPRMC,192341.00,A,4734.058240725946,N,300.6612106760911,W,12.93,176.8,160524,,,A*7E
!AIVDM,1,1,,A,B;3O78h0;GtP0k6j:dW46Lv000000,0*1A
$GPRMC,192343.00,A,4734.051513664734,N,300.6603272056238,W,13.97,174.8,160524,,,A*7E
$GPRMC,192344.00,A,4734.044786603408,N,300.6594437389387,W,13.68,176.3,160524,,,A*79
!AIVDM,1,1,,A,B2c2MRh0`7tNodViT4eII7v000000,0*5D
$GPRMC,192345.00,A,4734.038059541972,N,300.65856027603587,W,12.37,172.6,160524,,,A*4B
!AIVDM,1,1,,A,B2HLCnh0Lotfvi6jGBQIA7N000000,0*70
!AIVDM,1,1,,A,B;hTAP00I7t`<g6jqhf<ihv000000,0*2B
$GPRMC,192347.00,A,4734.03133248042,N,300.65767681691506,W,13.48,176.2,160524,,,A*74
!AIVDM,1,1,,A,B;e1i4@0W7tbvlVk>jVGqqv000000,0*44
!AIVDM,1,1,,A,B2<Kt0@0@WtcHOVjF>SNJiv000000,0*1E
$GPRMC,192348.00,A,4734.024605418756,N,300.65679336157655,W,10.17,174.6,160524,,,A*4D
$GPRMC,192349.00,A,4734.017878356979,N,300.65590991002,W,11.05,175.5,160524,,,A*72
!AIVDM,1,1,,A,B7vvR<@0:7thLfVjDmBQ>0v000000,0*8
!AIVDM,1,1,,A,B3nIVNh0`otb`C6k5;oPRkv000000,0*29
$GPRMC,192351.00,A,4734.011151295089,N,300.6550264622456,W,10.02,176.5,160524,,,A*79
!AIVDM,1,1,,A,B6k`<500TGth:<6jM:`4L3v000000,0*2F
!AIVDM,1,1,,A,B>G68W00=7te>>Visnu3lnN000000,0*77
$GPRMC,192352.00,A,4734.004424233086,N,300.65414301825325,W,12.74,175.2,160524,,,A*41
!AIVDM,1,1,,A,B<eLiW@0?GtJMg6imV49@7N000000,0*3
!AIVDM,1,1,,A,B4jh@jh09GtKjuVjV09Oa<v000000,0*79
$GPRMC,192353.00,A,4733.997697170969,N,300.6532595780429,W,11.3,172.6,160524,,,A*42
$GPRMC,192354.00,A,4733.99097010874,N,300.6523761416145,W,12.39,174.4,160524,,,A*4A
$GPRMC,192355.00,A,4733.984243046397,N,300.6514927089681,W,13.47,172.6,160524,,,A*79
!AIVDM,1,1,,A,B2HLCnh0IGtg2S6jFn5Hm7N000000,0*46
!AIVDM,1,1,,A,B2c2MRh0Q7tNueViSIuH=6v000000,0*69
!AIVDM,1,1,,A,B;3O78h0FGtOuTVj:sw3nLv000000,0*A
$GPRMC,192356.00,A,4733.977515983943,N,300.6506092801036,W,14.42,174.2,160524,,,A*77
!AIVDM,1,1,,A,B;hTAP00MWt`8KVjqH::afv000000,0*7B
!AIVDM,1,1,,A,B;e1i4@0Votblp6k>GfHEqv000000,0*5D
$GPRMC,192358.00,A,4733.970788921373,N,300.64972585502096,W,11.85,176.2,160524,,,A*49
$GPRMC,192359.00,A,4733.964061858692,N,300.64884243372023,W,12.26,176.1,160524,,,A*4B
!AIVDM,1,1,,A,B3nIVNh0`WtbWqVk5wkNBiv000000,0*30
!AIVDM,1,1,,A,B6k`<500UWth;J6jMvP3@2v000000,0*3F
$GPRMC,192405.00,A,4733.930426543588,N,300.64442538394314,W,9.82,173.1,160524,,,A*7F
!AIVDM,1,1,,A,B<eLiW@0@WtJNkVimtp9H7v000000,0*55
$GPRMC,192406.00,A,4733.923699480229,N,300.6435419853329,W,9.86,176.4,160524,,,A*46
$GPRMC,192407.00,A,4733.916972416754,N,300.64265859050425,W,14.49,177,160524,,,A*50
!AIVDM,1,1,,A,B2c2MRh0S7tO3fViRg=I=7N000000,0*70
$GPRMC,192409.00,A,4733.910245353169,N,300.64177519945724,W,11.88,172.6,160524,,,A*4A
!AIVDM,1,1,,A,B2HLCnh0Iotg6DVjFIaIU7v000000,0*6F
!AIVDM,1,1,,A,B;hTAP00Jot`486jpwV<uhv000000,0*15
$GPRMC,192410.00,A,4733.9035182894695,N,300.6408918121918,W,9.92,175.5,160524,,,A*70
!AIVDM,1,1,,A,B;3O78h0;otOrFVj;;K3BLN000000,0*2B
$GPRMC,192412.00,A,4733.896791225658,N,300.6400084287079,W,11.45,176.7,160524,,,A*78
!AIVDM,1,1,,A,B;e1i4@0dGtbbsVk=trI=rv000000,0*74
!AIVDM,1,1,,A,5;e1i4D00001<To337;79<Tl4U<0000000000016000000000;000000000000000000000,0*4
$GPRMC,192413.00,A,4733.890064161733,N,300.63912504900554,W,10.56,173,160524,,,A*5C
!AIVDM,1,1,,A,B2<Kt0@0?GtcGeVjG0WLRhN000000,0*7C
$GPRMC,192414.00,A,4733.8833370976945,N,300.6382416730846,W,12.42,177.3,160524,,,A*42
!AIVDM,1,1,,A,B6k`<500Q7th<`6jNjH584N000000,0*31
$GPRMC,192415.00,A,4733.876610033543,N,300.6373583009452,W,11.52,172.7,160524,,,A*7F
!AIVDM,1,1,,A,B>G68W00>WteC>Visg13lnN000000,0*24
!AIVDM,1,1,,A,B3nIVNh0O7tbWPVk6kgN>iv000000,0*31
!AIVDM,1,1,,A,B<eLiW@0EGtJOoVinCd8l7N000000,0*78
$GPRMC,192417.00,A,4733.8698829692785,N,300.6364749325872,W,13.08,175.1,160524,,,A*47
!AIVDM,1,1,,A,B4jh@jh0A7tKn;6jULQQ1=v000000,0*3
!AIVDM,1,1,,A,B7vvR<@0A7thF36jDe6Oewv000000,0*32
$GPRMC,192418.00,A,4733.863155904901,N,300.63559156801057,W,13.07,174.9,160524,,,A*4D
!AIVDM,1,1,,A,B2c2MRh0aotO9h6iR4MH16N000000,0*51
$GPRMC,192419.00,A,4733.856428840411,N,300.63470820721534,W,11.69,176,160524,,,A*58
$GPRMC,192421.00,A,4733.849701775807,N,300.6338248502014,W,14.04,174.2,160524,,,A*7F
!AIVDM,1,1,,A,B2HLCnh0Kotg:66jEu=Hm7N000000,0*11
$GPRMC,192422.00,A,4733.84297471109,N,300.6329414969687,W,10.76,173.2,160524,,,A*4B
!AIVDM,1,1,,A,B;3O78h0EGtOo8Vj;Jk2fKv000000,0*55
$GPRMC,192423.00,A,4733.836247646262,N,300.6320581475174,W,12.59,175.6,160524,,,A*7C
!AIVDM,1,1,,A,B;hTAP00MGtWwm6jpW2<5hN000000,0*27
$GPRMC,192424.00,A,4733.829520581318,N,300.6311748018473,W,12.12,174.7,160524,,,A*70
$GPRMC,192426.00,A,4733.822793516263,N,300.63029145995836,W,11.64,177.3,160524,,,A*44
!AIVDM,1,1,,A,B2<Kt0@0=otcGDVjGIWNbjN000000,0*3E
$GPRMC,192427.00,A,4733.816066451094,N,300.6294081218506,W,13.2,177,160524,,,A*56
!AIVDM,1,1,,A,B;e1i4@0aotbL16k=DUwuVN000000,0*28
!AIVDM,1,1,,A,B3nIVNh0RotbW7Vk7WgPFkN000000,0*72
$GPRMC,192428.00,A,4733.8093393858135,N,300.628524787524,W,11.37,173.5,160524,,,A*75
!AIVDM,1,1,,A,B6k`<500Ooth=nVjOVD3d2v000000,0*4D
!AIVDM,1,1,,A,B4jh@jh0=WtKoj6jU:eO1<N000000,0*2A
$GPRMC,192429.00,A,4733.802612320418,N,300.62764145697855,W,11.27,175.8,160524,,,A*41
!AIVDM,1,1,,A,B2c2MRh0V7tO?i6iQIaHu7N000000,0*2E
!AIVDM,1,1,,A,B>G68W00:oteEfVisc128lv000000,0*2D
!AIVDM,1,1,,A,B<eLiW@0E7tJPt6inbT7t6N000000,0*6B
$GPRMC,192430.00,A,4733.795885254911,N,300.6267581302141,W,13.74,175.4,160524,,,A*7B
!AIVDM,1,1,,A,B7vvR<@0>WthBeVjDa2P>0N000000,0*24
$GPRMC,192432.00,A,4733.78915818929,N,300.6258748072308,W,10.58,175.2,160524,,,A*47
$GPRMC,192433.00,A,4733.782431123556,N,300.62499148802846,W,11.01,173.3,160524,,,A*41
$GPRMC,192435.00,A,4733.775704057709,N,300.6241081726071,W,10.83,175.8,160524,,,A*76
!AIVDM,1,1,,A,B;hTAP00IotWsQVjp>N:9fv000000,0*7A
!AIVDM,1,1,,A,B2HLCnh0JWtg=oVjEPmJa8v000000,0*5A
$GPRMC,192436.00,A,4733.76897699175,N,300.62322486096673,W,9.89,173.9,160524,,,A*45
!AIVDM,1,1,,A,B;3O78h0=otOkr6j;b?1JJv000000,0*79
!AIVDM,1,1,,A,B2<Kt0@0=GtcFsVjGjWO:jv000000,0*62
$GPRMC,192437.00,A,4733.762249925677,N,300.6223415531073,W,13.61,176.1,160524,,,A*74
$GPRMC,192439.00,A,4733.755522859491,N,300.6214582490287,W,13.69,173.3,160524,,,A*73
!AIVDM,1,1,,A,B;e1i4@0UWtbIB6k<nQweVN000000,0*6D
$GPRMC,192440.00,A,4733.74543226,N,300.6201333,W,9.5,185.4,160524,,,A*77
!AIVDM,1,1,,A,B3nIVNh0RWtbVfVk8KcOJjv000000,0*27
$GPRMC,192441.00,A,4733.742076130287,N,300.6206453139203,W,13.58,184.5,160524,,,A*71
!AIVDM,1,1,,A,B<eLiW@0G7tJR0Vio1H:D8N000000,0*32
$GPRMC,192442.00,A,4733.73536387075,N,300.62166933848073,W,14.38,184.5,160524,,,A*70
!AIVDM,1,1,,A,B6k`<500RWth?4VjPJ<544N000000,0*23
!AIVDM,1,1,,A,B4jh@jh0AGtKqI6jTpqQe>N000000,0*6C
!AIVDM,1,1,,A,B>G68W004GteH>VisW110lN000000,0*59
$GPRMC,192443.00,A,4733.728651611061,N,300.6226933586677,W,11.99,183.6,160524,,,A*77
!AIVDM,1,1,,A,B7vvR<@0BWth?GVjDTvOiwv000000,0*41
!AIVDM,1,1,,A,B2c2MRh0U7tOEj6iPfqGe6N000000,0*74
$GPRMC,192444.00,A,4733.72193935122,N,300.62371737448115,W,11.76,184.6,160524,,,A*73
$GPRMC,192446.00,A,4733.715227091227,N,300.6247413859212,W,9.71,184.6,160524,,,A*4F
$GPRMC,192447.00,A,4733.708514831081,N,300.62576539298783,W,9.59,187.4,160524,,,A*76
$GPRMC,192448.00,A,4733.701802570784,N,300.62678939568104,W,13.1,185.3,160524,,,A*73
!AIVDM,1,1,,A,B2<Kt0@0CWtcFRVjH;WLnhv000000,0*26
!AIVDM,1,1,,A,B2HLCnh0NGtgAa6jE4IHm7N000000,0*25
$GPRMC,192449.00,A,4733.695090310335,N,300.627813394001,W,12.85,184.1,160524,,,A*4B
!AIVDM,1,1,,A,B;3O78h0?GtOhd6j;qW1RJv000000,0*25
$GPRMC,192450.00,A,4733.688378049734,N,300.6288373879477,W,14.37,185.4,160524,,,A*7C
$GPRMC,192452.00,A,4733.681665788981,N,300.6298613775211,W,9.7,187.5,160524,,,A*7F
!AIVDM,1,1,,A,B3nIVNh0`otbVE6k9?WOVjv000000,0*33
$GPRMC,192453.00,A,4733.674953528076,N,300.6308853627213,W,10.99,184.9,160524,,,A*71
!AIVDM,1,1,,A,B4jh@jh0;otKs06jTW9Qe>N000000,0*2A
!AIVDM,1,1,,A,B6k`<500U7th@BVjQ>44h3v000000,0*52
!AIVDM,1,1,,A,B<eLiW@0CGtJS4VioH<7`6N000000,0*69
!AIVDM,1,1,,A,B>G68W00=oteJfVisS53pnN000000,0*62
!AIVDM,1,1,,A,B;e1i4@0fGtbCl6k;rJ1UWv000000,0*25
!AIVDM,1,1,,A,5;e1i4D00001<To337;79<Tl4U<0000000000016000000000;000000000000000000000,0*4
$GPRMC,192454.00,A,4733.66824126702,N,300.63190934354833,W,13.8,184.2,160524,,,A*45
$GPRMC,192455.00,A,4733.661529005811,N,300.6329333200022,W,14,187.7,160524,,,A*59
$GPRMC,192456.00,A,4733.654816744451,N,300.633957292083,W,11.07,184.7,160524,,,A*48
$GPRMC,192458.00,A,4733.648104482938,N,300.63498125979066,W,12.55,185.5,160524,,,A*43
!AIVDM,1,1,,A,B7vvR<@08Gth<26jDPnOawv000000,0*29
!AIVDM,1,1,,A,B2c2MRh0T7tOKk6iP49JE8N000000,0*43
$GPRMC,192459.00,A,4733.641392221274,N,300.6360052231253,W,13.81,184.3,160524,,,A*74
$GPRMC,192500.00,A,4733.6346799594585,N,300.63702918208696,W,9.53,185.7,160524,,,A*40
!AIVDM,1,1,,A,B2<Kt0@0?WtcF9VjHTWMFiN000000,0*4E
!AIVDM,1,1,,A,B2HLCnh0HWtgEJVjDWuIQ7v000000,0*27
!AIVDM,1,1,,A,B;hTAP00M7tWjs6joMF:igN000000,0*70
!AIVDM,1,1,,A,H;hTAP0,0*48
$GPRMC,192502.00,A,4733.627967697491,N,300.6380531366757,W,12.27,187.4,160524,,,A*7A
$GPRMC,192503.00,A,4733.621255435371,N,300.63907708689146,W,12.1,184.3,160524,,,A*78
!AIVDM,1,1,,A,B3nIVNh0bGtbUt6k:3WQ6lN000000,0*64
$GPRMC,192504.00,A,4733.614543173098,N,300.6401010327343,W,9.84,188.3,160524,,,A*41
!AIVDM,1,1,,A,B4jh@jh0=7tKtVVjTEEOa<v000000,0*3B
!AIVDM,1,1,,A,B;3O78h0?GtOeN6j<932>KN000000,0*7F
$GPRMC,192505.00,A,4733.607830910675,N,300.64112497420433,W,10.9,188.2,160524,,,A*77
!AIVDM,1,1,,A,B>G68W00>WteM>VisO53<mv000000,0*6D
$GPRMC,192507.00,A,4733.601118648099,N,300.64214891130143,W,11.33,186.2,160524,,,A*49
!AIVDM,1,1,,A,B;e1i4@0VGtb>FVk:vB09Vv000000,0*43
!AIVDM,1,1,,A,B<eLiW@0E7tJT96iog07l6N000000,0*5A
$GPRMC,192508.00,A,4733.594406385372,N,300.64317284402586,W,13.04,185.6,160524,,,A*45
!AIVDM,1,1,,A,B6k`<500P7thAQ6jR1t5p4v000000,0*77
$GPRMC,192509.00,A,4733.587694122492,N,300.6441967723775,W,10.05,185.2,160524,,,A*77
!AIVDM,1,1,,A,B7vvR<@0;oth8d6jDLjPr0v000000,0*3
$GPRMC,192510.00,A,4733.580981859463,N,300.64522069635643,W,12.6,184.3,160524,,,A*7C
!AIVDM,1,1,,A,B2c2MRh0`otOQl6iOIIHm7N000000,0*5
!AIVDM,1,1,,A,B2HLCnh0FotgI<6jD;QJi8v000000,0*77
$GPRMC,192512.00,A,4733.574269596279,N,300.6462446159627,W,13.32,187.6,160524,,,A*7C
!AIVDM,1,1,,A,B2<Kt0@0=GtcEh6jHuWOJjv000000,0*7A
!AIVDM,1,1,,A,B;hTAP00MGtWfWVjo4j<EhN000000,0*38
$GPRMC,192513.00,A,4733.5675573329445,N,300.6472685311963,W,14.32,183.5,160524,,,A*40
$GPRMC,192514.00,A,4733.560845069457,N,300.64829244205725,W,14.27,186.4,160524,,,A*4E
!AIVDM,1,1,,A,B3nIVNh0S7tbUS6k:oSORjv000000,0*1E
$GPRMC,192516.00,A,4733.554132805819,N,300.6493163485457,W,12.39,184.9,160524,,,A*77
$GPRMC,192517.00,A,4733.547420542028,N,300.65034025066154,W,10.72,186.2,160524,,,A*42
!AIVDM,1,1,,A,B4jh@jh07otKv=VjT3QP5<v000000,0*29
!AIVDM,1,1,,A,B;3O78h0=WtOb?Vj<HO1rKN000000,0*39
$GPRMC,192518.00,A,4733.540708278086,N,300.6513641484049,W,9.78,186.5,160524,,,A*48
!AIVDM,1,1,,A,B>G68W0087teOfVisK514lN000000,0*66
$GPRMC,192519.00,A,4733.533996013992,N,300.65238804177585,W,14.37,184,160524,,,A*51
!AIVDM,1,1,,A,B7vvR<@0@oth5FVjDHfOmwv000000,0*78
$GPRMC,192521.00,A,4733.527283749745,N,300.6534119307743,W,11.57,185.5,160524,,,A*73
!AIVDM,1,1,,A,B<eLiW@0;otJU=Vip5p:08N000000,0*4B
!AIVDM,1,1,,A,B;e1i4@0WGtb;oVk:Rv0iWN000000,0*17
$GPRMC,192522.00,A,4733.520571485347,N,300.6544358154004,W,9.83,188.2,160524,,,A*42
$GPRMC,192523.00,A,4733.513859220798,N,300.65545969565414,W,13.37,186.7,160524,,,A*4B
!AIVDM,1,1,,A,B2c2MRh0PGtOWlViNfaJE8N000000,0*58
!AIVDM,1,1,,A,B2HLCnh0GWtgLv6jCg5KE9N000000,0*2A
$GPRMC,192525.00,A,4733.507146956096,N,300.65648357153555,W,13.67,185.9,160524,,,A*48
!AIVDM,1,1,,A,B3nIVNh0`7tbU:6k;cOO>jv000000,0*39
!AIVDM,1,1,,A,53nIVNl00001<To33@33A<Tl4U<000000000000N000000000;000000000000000000000,0*68
$GPRMC,192526.00,A,4733.500434691242,N,300.65750744304466,W,13.83,186.6,160524,,,A*4A
!AIVDM,1,1,,A,B2<Kt0@0D7tcEG6jIFcNnjN000000,0*47
!AIVDM,1,1,,A,B;hTAP00DotWdN6jnpN;mgv000000,0*1B
$GPRMC,192527.00,A,4733.493722426237,N,300.65853131018156,W,10.07,183.6,160524,,,A*42
!AIVDM,1,1,,A,B4jh@jh0B7tKwlVjSieP=<v000000,0*35
!AIVDM,1,1,,A,B;3O78h0C7tOW1Vj<Wo1rKN000000,0*23
$GPRMC,192529.00,A,4733.48701016108,N,300.6595551729462,W,10.31,185.6,160524,,,A*43
$GPRMC,192530.00,A,4733.48029789577,N,300.66057903133867,W,12.37,185.9,160524,,,A*72
$GPRMC,192531.00,A,4733.4735856303105,N,300.661602885359,W,11.5,187.7,160524,,,A*4C
!AIVDM,1,1,,A,B7vvR<@0>Wth20VjDDVPF0N000000,0*38
!AIVDM,1,1,,A,B>G68W00<7teR?6isG934mv000000,0*7D
$GPRMC,192532.00,A,4733.466873364697,N,300.66262673500717,W,11.13,186.6,160524,,,A*4C
$GPRMC,192533.00,A,4733.460161098931,N,300.66365058028333,W,11.95,188,160524,,,A*5E
!AIVDM,1,1,,A,B<eLiW@0:otJVB6ipLd987N000000,0*3F
!AIVDM,1,1,,A,B;e1i4@0RGtb6qVk9dAwaVN000000,0*4D
!AIVDM,1,1,,A,B6k`<500`othCuVjSad403N000000,0*66
$GPRMC,192535.00,A,4733.4500927,N,300.66518634,W,10.04,229.4,160524,,,A*79
!AIVDM,1,1,,A,B2c2MRh0S7tOemViN3mII7v000000,0*79
$GPRMC,192536.00,A,4733.447969321078,N,300.66902000234427,W,10.08,228.9,160524,,,A*4B
!AIVDM,1,1,,A,B2<Kt0@0AotcDv6jIgcOJjv000000,0*16
!AIVDM,1,1,,A,B2HLCnh0LWtgPgVjCBeIQ7v000000,0*19
$GPRMC,192537.00,A,4733.443722556844,N,300.6766873114967,W,12,229.8,160524,,,A*54
!AIVDM,1,1,,A,B3nIVNh0botbTT6k<qHUlNN000000,0*4A
$GPRMC,192538.00,A,4733.439475784094,N,300.68435459993447,W,9.63,228.3,160524,,,A*75
$GPRMC,192539.00,A,4733.435229002828,N,300.6920218676577,W,12.22,232.7,160524,,,A*75
$GPRMC,192540.00,A,4733.430982213046,N,300.6996891146663,W,9.95,230,160524,,,A*5F
!AIVDM,1,1,,A,B;hTAP00K7tW`:VjnOr:Afv000000,0*73
$GPRMC,192541.00,A,4733.426735414748,N,300.7073563409604,W,13,229.8,160524,,,A*58
!AIVDM,1,1,,A,B>G68W00:WteTg6isC92DmN000000,0*8
$GPRMC,192543.00,A,4733.422488607932,N,300.7150235465402,W,12.07,230.4,160524,,,A*7E
!AIVDM,1,1,,A,B;3O78h0;WtOSkVj<oC2>KN000000,0*3E
!AIVDM,1,1,,A,B4jh@jh0=GtL1KVjSOuOI<N000000,0*39
!AIVDM,1,1,,A,B7vvR<@0?7tgvc6jD@ROAwN000000,0*7E
$GPRMC,192544.00,A,4733.418241792602,N,300.72269073140563,W,12.72,229.4,160524,,,A*47
!AIVDM,1,1,,A,B<eLiW@0<GtJWF6ipkP907N000000,0*F
$GPRMC,192545.00,A,4733.413994968756,N,300.7303578955567,W,13.01,231,160524,,,A*6A
$GPRMC,192546.00,A,4733.409748136393,N,300.73802503899367,W,13,228.5,160524,,,A*6D
!AIVDM,1,1,,A,B2<Kt0@0D7tcDU6jJ8cNJiv000000,0*36
$GPRMC,192547.00,A,4733.405501295516,N,300.7456921617164,W,14.4,233,160524,,,A*59
!AIVDM,1,1,,A,B;e1i4@0bGtb1sVk8mb1eWv000000,0*28
!AIVDM,1,1,,A,B6k`<500PothE;VjTMT5l4v000000,0*67
$GPRMC,192549.00,A,4733.401254446122,N,300.7533592637251,W,11.06,231.3,160524,,,A*76
!AIVDM,1,1,,A,B3nIVNh0Wotb`lVk=7TUTNN000000,0*70
$GPRMC,192550.00,A,4733.397007588212,N,300.76102634501973,W,11.66,230.1,160524,,,A*46
!AIVDM,1,1,,A,B2c2MRh0cotOknViMI5HI6v000000,0*3D
!AIVDM,1,1,,A,B2HLCnh0KotgTQ6jBnAI=7N000000,0*29
$GPRMC,192551.00,A,4733.3927607217865,N,300.76869340560046,W,14.36,232.7,160524,,,A*76
$GPRMC,192553.00,A,4733.388513846845,N,300.7763604454673,W,11.05,230.2,160524,,,A*70
$GPRMC,192554.00,A,4733.384266963388,N,300.7840274646203,W,12.83,232.8,160524,,,A*78
$GPRMC,192555.00,A,4733.380020071416,N,300.79169446305957,W,12.77,231,160524,,,A*5D
!AIVDM,1,1,,A,B>G68W00:7teW?6is?=2LmN000000,0*43
!AIVDM,1,1,,A,B;hTAP00JWtWSo6jn7F:efv000000,0*7C
$GPRMC,192556.00,A,4733.3757731709275,N,300.7993614407851,W,11.97,232.5,160524,,,A*49
!AIVDM,1,1,,A,B;3O78h0>otOPU6j=6c3JLN000000,0*54
!AIVDM,1,1,,A,B4jh@jh0>WtL326jS>9OA<N000000,0*4
!AIVDM,1,1,,A,B7vvR<@08otgsE6jD<NQ:0v000000,0*78
!AIVDM,1,1,,A,H7vvR<@,0*77
!AIVDM,1,1,,A,B2<Kt0@0DotcD<6jJQcM>hv000000,0*18
$GPRMC,192558.00,A,4733.3715262619235,N,300.807028397797,W,14.48,228.4,160524,,,A*72
!AIVDM,1,1,,A,56k`<5400001<To334335<TlM1<000000000000N000000000;000000000000000000000,0*15
!AIVDM,1,1,,A,B6k`<500TGthG16jUcJt2FN000000,0*47
$GPRMC,192559.00,A,4733.367279344405,N,300.8146953340954,W,14.31,228.9,160524,,,A*7A
!AIVDM,1,1,,A,B<eLiW@0<WtJ`JViq:D8h7N000000,0*59
!AIVDM,1,1,,A,B;e1i4@0`otatuVk7vv0uWN000000,0*6B
!AIVDM,1,1,,A,B3nIVNh0botbiF6k=SpUPNN000000,0*42
$GPRMC,192600.00,A,4733.36303241837,N,300.8223622496803,W,14.33,230.5,160524,,,A*46
$GPRMC,192602.00,A,4733.35878548382,N,300.83002914455176,W,9.72,229.4,160524,,,A*47
$GPRMC,192603.00,A,4733.354538540754,N,300.83769601870983,W,14.46,228.4,160524,,,A*4E
!AIVDM,1,1,,A,B2HLCnh0FGtg`BVjBImK18v000000,0*79
!AIVDM,1,1,,A,H2HLCnh,0*1D
$GPRMC,192604.00,A,4733.350291589174,N,300.8453628721547,W,10.11,231.1,160524,,,A*7E
!AIVDM,1,1,,A,B2c2MRh0aotOqoViLfEH16N000000,0*3A
$GPRMC,192606.00,A,4733.346044629077,N,300.8530297048863,W,11.15,232.6,160524,,,A*7C
$GPRMC,192607.00,A,4733.341797660466,N,300.86069651690474,W,12.09,229.7,160524,,,A*47
!AIVDM,1,1,,A,B;hTAP00CGtWOT6jmfj:9fv000000,0*60
$GPRMC,192608.00,A,4733.33755068334,N,300.86836330821006,W,13.77,228.5,160524,,,A*70
!AIVDM,1,1,,A,B>G68W00?oteag6is;=3TnN000000,0*6E
!AIVDM,1,1,,A,B2<Kt0@0AWtcCk6jJrcO:jv000000,0*52
!AIVDM,1,1,,A,B6k`<500RothBs6jUpFtRFv000000,0*69
!AIVDM,1,1,,A,B4jh@jh0@WtL4a6jRtEOM<N000000,0*15
$GPRMC,192610.00,A,4733.333303697698,N,300.87603007880233,W,12.71,231.3,160524,,,A*40
!AIVDM,1,1,,A,B7vvR<@0AWtgnDVjD6EjIKv000000,0*77
$GPRMC,192611.00,A,4733.329056703542,N,300.88369682868165,W,13.03,232.3,160524,,,A*4D
!AIVDM,1,1,,A,B;3O78h0CotOMG6j=F72fKv000000,0*10
!AIVDM,1,1,,A,B;e1i4@0UotaowVk78F0UVv000000,0*20
!AIVDM,1,1,,A,5;e1i4D00001<To337;79<Tl4U<0000000000016000000000;000000000000000000000,0*4
!AIVDM,1,1,,A,B3nIVNh0W7tbqoVk>0<UHMv000000,0*71
$GPRMC,192612.00,A,4733.324809700869,N,300.89136355784814,W,13.06,231.8,160524,,,A*4F
!AIVDM,1,1,,A,B<eLiW@0DotJaO6iqQ<9@7N000000,0*47
$GPRMC,192614.00,A,4733.320562689683,N,300.89903026630174,W,10.21,229.5,160524,,,A*4D
$GPRMC,192615.00,A,4733.316315669981,N,300.90669695404256,W,10.1,232.5,160524,,,A*77
$GPRMC,192616.00,A,4733.312068641765,N,300.9143636210707,W,14.46,229.1,160524,,,A*7A
!AIVDM,1,1,,A,B2c2MRh0cotOwpViL3QHa6v000000,0*8
$GPRMC,192617.00,A,4733.307821605034,N,300.9220302673862,W,13.82,233,160524,,,A*6B
!AIVDM,1,1,,A,B2HLCnh0MotgetVjAg=eEGN000000,0*9
$GPRMC,192619.00,A,4733.303574559786,N,300.9296968929891,W,14.4,231.7,160524,,,A*4D
$GPRMC,192620.00,A,4733.299327506026,N,300.9373634978796,W,9.82,231.5,160524,,,A*42
!AIVDM,1,1,,A,B6k`<500QGth:gVjVB>t2FN000000,0*5F
!AIVDM,1,1,,A,B7vvR<@0:7tgn:VjCu1lUMN000000,0*6
$GPRMC,192621.00,A,4733.29508044375,N,300.9450300820576,W,13.74,229.1,160524,,,A*4C
!AIVDM,1,1,,A,B;e1i4@0b7tak1Vk6Ab1AWN000000,0*7D
!AIVDM,1,1,,A,B;3O78h0@GtOJ8Vj=UO2RKv000000,0*7C
!AIVDM,1,1,,A,B>G68W0077ted?6is7=2pmv000000,0*71
!AIVDM,1,1,,A,B4jh@jh0=otL6@6jRbQP9<v000000,0*22
$GPRMC,192622.00,A,4733.290833372959,N,300.9526966455232,W,10.64,231.6,160524,,,A*77
!AIVDM,1,1,,A,B;hTAP00HGtWK@VjmF><qhv000000,0*2F
$GPRMC,192624.00,A,4733.286586293654,N,300.9603631882765,W,9.67,231.4,160524,,,A*48
!AIVDM,1,1,,A,B2<Kt0@0>7tcCJ6jKCcLRhN000000,0*D
!AIVDM,1,1,,A,B3nIVNh0SWtc2HVk>LLSpLv000000,0*43
$GPRMC,192625.00,A,4733.282339205834,N,300.96802971031764,W,13.24,228.8,160524,,,A*43
$GPRMC,192626.00,A,4733.2780921095,N,300.9756962116465,W,14.29,232.6,160524,,,A*71
!AIVDM,1,1,,A,B<eLiW@0DGtJbSViqp09h7v000000,0*2D
$GPRMC,192627.00,A,4733.273845004651,N,300.9833626922633,W,12.07,232.2,160524,,,A*71
$GPRMC,192629.00,A,4733.269597891288,N,300.99102915216804,W,12.25,232.4,160524,,,A*4F
$GPRMC,192630.00,A,4733.265350769409,N,300.99869559136084,W,12.15,231.9,160524,,,A*4D
!AIVDM,1,1,,A,B2HLCnh0LWtgf7VjAMaf5HN000000,0*7A
!AIVDM,1,1,,A,B2c2MRh0WWtP5qViKHiJ=8N000000,0*74
$GPRMC,192631.00,A,4733.261103639018,N,301.00636200984167,W,14.02,232.4,160524,,,A*41
$GPRMC,192632.00,A,4733.256856500111,N,301.01402840761074,W,13.11,231.9,160524,,,A*49
!AIVDM,1,1,,A,B;e1i4@0dGtahWVk5o9wQVN000000,0*4F
!AIVDM,1,1,,A,B4jh@jh0A7tL7o6jRHeOE<N000000,0*6D
!AIVDM,1,1,,A,B>G68W00?Wtefg6is3A1tlv000000,0*3D
$GPRMC,192633.00,A,4733.25260935269,N,301.02169478466794,W,11.3,228.6,160524,,,A*40
!AIVDM,1,1,,A,B;hTAP00HGtWFuVjlub:igN000000,0*50
!AIVDM,1,1,,A,B7vvR<@0=WtgmnVjCbIleMN000000,0*69
$GPRMC,192634.00,A,4733.248362196755,N,301.0293611410135,W,13.16,230.3,160524,,,A*79
!AIVDM,1,1,,A,B;3O78h0CotOFrVj=ls2NKv000000,0*8
!AIVDM,1,1,,A,B6k`<500R7th2SVjVd6tNFv000000,0*7A
$GPRMC,192636.00,A,4733.244115032305,N,301.0370274766473,W,12.34,232.3,160524,,,A*76
$GPRMC,192637.00,A,4733.239867859343,N,301.04469379156967,W,12.3,232.8,160524,,,A*73
!AIVDM,1,1,,A,B2<Kt0@0AotcC0VjKdcNrjN000000,0*37
!AIVDM,1,1,,A,B3nIVNh0VWtc:r6k>phSTLN000000,0*10
$GPRMC,192638.00,A,4733.235620677865,N,301.05236008578044,W,13.64,231,160524,,,A*5D
!AIVDM,1,1,,A,B<eLiW@0FWtJcWVir>l9t7v000000,0*37
$GPRMC,192639.00,A,4733.231373487873,N,301.0600263592798,W,14.08,231.1,160524,,,A*7A
$GPRMC,192641.00,A,4733.227126289367,N,301.0676926120677,W,11.51,231.8,160524,,,A*70
!AIVDM,1,1,,A,B2c2MRh0`GtP;r6iJf1II7v000000,0*9
$GPRMC,192642.00,A,4733.2228790823465,N,301.0753588441443,W,13.39,232.3,160524,,,A*47
$GPRMC,192643.00,A,4733.218631866814,N,301.08302505550967,W,9.75,231.9,160524,,,A*7B
!AIVDM,1,1,,A,B2HLCnh0F7tgfMVj@rUgIIN000000,0*1C
$GPRMC,192645.00,A,4733.214384642766,N,301.0906912461639,W,10.88,229.9,160524,,,A*70
!AIVDM,1,1,,A,B7vvR<@09GtgmS6jCGelaMN000000,0*2D
$GPRMC,192646.00,A,4733.210137410204,N,301.098357416107,W,12.65,229.2,160524,,,A*4C
!AIVDM,1,1,,A,B>G68W00?otei?6irwA1HlN000000,0*13
$GPRMC,192647.00,A,4733.205890169129,N,301.106023565339,W,13.01,231.1,160524,,,A*4F
!AIVDM,1,1,,A,B;e1i4@0Sotack6k52609Vv000000,0*42
!AIVDM,1,1,,A,B;hTAP00K7tWBb6jlU6<AhN000000,0*5
!AIVDM,1,1,,A,B4jh@jh0<GtL9MVjR6uP1<v000000,0*11
$GPRMC,192648.00,A,4733.20164291954,N,301.11368969386,W,9.64,229.7,160524,,,A*79
!AIVDM,1,1,,A,B6k`<500QotgrH6jW5vt>Fv000000,0*75
!AIVDM,1,1,,A,B;3O78h0A7tOCdVj>4C3BLN000000,0*18
$GPRMC,192649.00,A,4733.1973956614365,N,301.12135580167006,W,11.98,232,160524,,,A*6E
$GPRMC,192650.00,A,4733.193148394821,N,301.12902188876933,W,10.05,229.1,160524,,,A*46
!AIVDM,1,1,,A,B<eLiW@0CotJdd6irU`:@8N000000,0*39
!AIVDM,1,1,,A,B3nIVNh0`WtcCKVk?E4TlMN000000,0*50
$GPRMC,192652.00,A,4733.18890111969,N,301.13668795515775,W,11.61,229.7,160524,,,A*71
!AIVDM,1,1,,A,B2<Kt0@0?WtcBWVjL5gO:jv000000,0*34
$GPRMC,192653.00,A,4733.184653836047,N,301.1443540008355,W,12.07,231.1,160524,,,A*7D
!AIVDM,1,1,,A,B2HLCnh0E7tgfk6j@GQe=GN000000,0*10
$GPRMC,192654.00,A,4733.18040654389,N,301.1520200258025,W,11.77,231.4,160524,,,A*44
!AIVDM,1,1,,A,B2c2MRh0TotPAs6iJ3AH16N000000,0*B
$GPRMC,192655.00,A,4733.1761592432185,N,301.15968603005905,W,14.49,228.8,160524,,,A*74
$GPRMC,192657.00,A,4733.171911934035,N,301.16735201360495,W,10.81,230.4,160524,,,A*44
!AIVDM,1,1,,A,B;hTAP00F7tW>G6jl<R;1gN000000,0*24
!AIVDM,1,1,,A,H;hTAP0,0*48
!AIVDM,1,1,,A,B7vvR<@0Botgm?6jC55jmKv000000,0*4
$GPRMC,192658.00,A,4733.167664616337,N,301.1750179764404,W,14.04,231.5,160524,,,A*77
!AIVDM,1,1,,A,B>G68W00@7tekgVirsA2HmN000000,0*8
!AIVDM,1,1,,A,B4jh@jh0;GtL;4VjQm9P=<v000000,0*75
!AIVDM,1,1,,A,54jh@jl00001<To33L33M<Tl4U<000000000000N000000000;000000000000000000000,0*78
$GPRMC,192659.00,A,4733.163417290126,N,301.1826839185655,W,10.55,230.3,160524,,,A*77
$GPRMC,192701.00,A,4733.159169955402,N,301.19034983998023,W,11.13,232.9,160524,,,A*45
$GPRMC,192702.00,A,4733.154922612163,N,301.19801574068475,W,13.42,232.7,160524,,,A*41
!AIVDM,1,1,,A,B;e1i4@0V7taVvVk4=221`N000000,0*59
!AIVDM,1,1,,A,B6k`<500QGtgj<6jWOjrvEv000000,0*1A
!AIVDM,1,1,,A,B<eLiW@0AGtJehVirtP7D5v000000,0*53
!AIVDM,1,1,,A,B;3O78h0@7tO@N6j>Cg2rKv000000,0*D
$GPRMC,192703.00,A,4733.150675260413,N,301.205681620679,W,12.91,232.4,160524,,,A*4D
$GPRMC,192704.00,A,4733.146427900149,N,301.2133474799632,W,10.7,232,160524,,,A*58
!AIVDM,1,1,,A,B2<Kt0@0DWtcB>VjLNgLbhv000000,0*4
!AIVDM,1,1,,A,B3nIVNh0aotcKu6k?iHU8Mv000000,0*2
$GPRMC,192706.00,A,4733.142180531372,N,301.22101331853725,W,12.34,230.4,160524,,,A*43
!AIVDM,1,1,,A,B2HLCnh0DGtgg96j?lMg1Hv000000,0*43
$GPRMC,192707.00,A,4733.137933154082,N,301.22867913640135,W,12.35,229.1,160524,,,A*4F
!AIVDM,1,1,,A,B2c2MRh0VGtPGt6iIHMHI6v000000,0*14
$GPRMC,192708.00,A,4733.133685768278,N,301.2363449335555,W,11.01,229.1,160524,,,A*76
$GPRMC,192709.00,A,4733.129438373961,N,301.2440107099997,W,9.77,228.2,160524,,,A*41
!AIVDM,1,1,,A,B7vvR<@0;7tglsVjBjMl1Lv000000,0*73
!AIVDM,1,1,,A,B;hTAP00JWtW:3Vjkkv:9fv000000,0*1C
$GPRMC,192711.00,A,4733.125190971132,N,301.2516764657342,W,11.13,231,160524,,,A*6D
$GPRMC,192712.00,A,4733.120943559789,N,301.2593422007589,W,12.08,228.7,160524,,,A*7B
!AIVDM,1,1,,A,B6k`<500SWtgb0VjWqbsRFN000000,0*44
!AIVDM,1,1,,A,B>G68W0087ten?ViroE3TnN000000,0*2B
$GPRMC,192713.00,A,4733.116696139935,N,301.2670079150739,W,12.07,229.3,160524,,,A*77
!AIVDM,1,1,,A,B;e1i4@0SWtaR:6k3H20QVv000000,0*A
!AIVDM,1,1,,A,B4jh@jh0CotL=O6jQJM3lnN000000,0*33
$GPRMC,192715.00,A,4733.112448711567,N,301.2746736086794,W,10.42,229.5,160524,,,A*73
!AIVDM,1,1,,A,B<eLiW@0<WtJfm6isCD9t7v000000,0*46
$GPRMC,192716.00,A,4733.108201274686,N,301.2823392815753,W,12.2,228.7,160524,,,A*40
!AIVDM,1,1,,A,B2<Kt0@0>GtcAmVjLogLjhv000000,0*17
$GPRMC,192717.00,A,4733.103953829293,N,301.29000493376174,W,13.77,231.5,160524,,,A*46
!AIVDM,1,1,,A,B;3O78h0CWtO=@6j>S;4:Lv000000,0*18
$GPRMC,192718.00,A,4733.099706375385,N,301.2976705652388,W,13.86,231.9,160524,,,A*7C
$GPRMC,192720.00,A,4733.095458912965,N,301.3053361760064,W,13.66,231.1,160524,,,A*72
!AIVDM,1,1,,A,B3nIVNh0`GtcTNVk@=`SHLN000000,0*23
!AIVDM,1,1,,A,B7vvR<@0>otglWVjBOmm=Mv000000,0*3
!AIVDM,1,1,,A,B2HLCnh0DWtggO6j?AIemGv000000,0*5D
$GPRMC,192721.00,A,4733.091211442033,N,301.3130017660648,W,14.44,231.4,160524,,,A*73
!AIVDM,1,1,,A,B2c2MRh0QWtPMtViHeeIu7v000000,0*51
$GPRMC,192722.00,A,4733.08696396259,N,301.320667335414,W,12.66,230.6,160524,,,A*71
!AIVDM,1,1,,A,B;hTAP00AWtW7r6jkWb<1hN000000,0*2B
!AIVDM,1,1,,A,B>G68W008GtepgVirkE14lN000000,0*79
$GPRMC,192724.00,A,4733.082716474634,N,301.328332884054,W,11.61,233,160524,,,A*5B
$GPRMC,192725.00,A,4733.078468978164,N,301.335998411985,W,11.28,228.6,160524,,,A*4A
!AIVDM,1,1,,A,B;e1i4@0e7taMEVk2Rv1uWv000000,0*27
$GPRMC,192726.00,A,4733.074221473183,N,301.3436639192069,W,10.35,232.6,160524,,,A*71
!AIVDM,1,1,,A,B4jh@jh0>GtL?>6jQGQ2pmv000000,0*22
!AIVDM,1,1,,A,B6k`<500S7tgQlVj`CRrnEN000000,0*40
!AIVDM,1,1,,A,B<eLiW@0<GtJgq6isb89h7v000000,0*A
$GPRMC,192727.00,A,4733.069973959688,N,301.3513294057199,W,14.02,230.7,160524,,,A*79
!AIVDM,1,1,,A,B;3O78h0;WtO:1Vj>jS2VKv000000,0*4A
$GPRMC,192729.00,A,4733.065726437682,N,301.35899487152403,W,13.02,229.5,160524,,,A*4B
$GPRMC,192730.00,A,4733.061478907162,N,301.3666603166193,W,12.57,232.4,160524,,,A*7C
$GPRMC,192731.00,A,4733.057231368131,N,301.37432574100586,W,11.73,230.4,160524,,,A*46
!AIVDM,1,1,,A,B2<Kt0@0?GtcALVjM@gLnhv000000,0*1D
!AIVDM,1,1,,A,B3nIVNh0VGtcdwVk@atSDLN000000,0*58
$GPRMC,192733.00,A,4733.052983820588,N,301.38199114468375,W,13.74,231.4,160524,,,A*4E
!AIVDM,1,1,,A,B2c2MRh0aWtPSuViH2uI97N000000,0*4D
$GPRMC,192734.00,A,4733.048736264533,N,301.3896565276529,W,11.81,230,160524,,,A*61
!AIVDM,1,1,,A,B>G68W00@7tes?VirgE2`mN000000,0*70
!AIVDM,1,1,,A,B2HLCnh0LGtgglVj>fEgqIv000000,0*3C
!AIVDM,1,1,,A,B7vvR<@0@GtglCVjB==jEKN000000,0*22
!AIVDM,1,1,,A,B;hTAP00JGtW3VVjk?6;AgN000000,0*34
$GPRMC,192735.00,A,4733.044488699965,N,301.3973218899136,W,11.47,231,160524,,,A*6E
$GPRMC,192736.00,A,4733.040241126885,N,301.40498723146584,W,11.57,229.6,160524,,,A*42
!AIVDM,1,1,,A,B6k`<500QWtgIa6j`eJsfFN000000,0*63
$GPRMC,192738.00,A,4733.035993545293,N,301.41265255230957,W,13.9,228.1,160524,,,A*78
!AIVDM,1,1,,A,B<eLiW@0EWtJhuVit0t7d6N000000,0*2A
!AIVDM,1,1,,A,B;e1i4@0U7taHQ6k1er1iWv000000,0*4A
!AIVDM,1,1,,A,B4jh@jh0BGtLBd6jQAe2pmv000000,0*4B
$GPRMC,192739.00,A,4733.03174595519,N,301.420317852445,W,13.44,232.5,160524,,,A*76
!AIVDM,1,1,,A,B;3O78h0DotO6kVj?1w3NLN000000,0*3
$GPRMC,192740.00,A,4733.027498356574,N,301.4279831318721,W,13.33,229.4,160524,,,A*75
$GPRMC,192742.00,A,4733.023250749447,N,301.43564839059104,W,11.69,229.5,160524,,,A*41
$GPRMC,192743.00,A,4733.019003133807,N,301.44331362860174,W,14.36,229.1,160524,,,A*44
$GPRMC,192744.00,A,4733.014755509655,N,301.4509788459044,W,13.94,230.4,160524,,,A*71
!AIVDM,1,1,,A,53nIVNl00001<To33@33A<Tl4U<000000000000N000000000;000000000000000000000,0*68
!AIVDM,1,1,,A,B3nIVNh0S7tcmQ6kA6BFqpv000000,0*26
$GPRMC,192746.00,A,4733.010507876993,N,301.458644042499,W,11.32,232.5,160524,,,A*45
!AIVDM,1,1,,A,B2<Kt0@0=GtcA3VjMagNvjN000000,0*61
!AIVDM,1,1,,A,B7vvR<@0CGtgl06jArUjAKN000000,0*12
$GPRMC,192747.00,A,4733.0062602358175,N,301.4663092183856,W,10.63,232.7,160524,,,A*47
!AIVDM,1,1,,A,B2c2MRh0PGtPav6iGH9J=8N000000,0*C
!AIVDM,1,1,,A,B;hTAP00HotVwCVjjnR:Afv000000,0*42
!AIVDM,1,1,,A,B2HLCnh0L7tgh:Vj>;EeQGv000000,0*64
!AIVDM,1,1,,A,B>G68W005oteugVircI1`lv000000,0*31
$GPRMC,192748.00,A,4733.00201258613,N,301.4739743735644,W,11.46,229,160524,,,A*5B
!AIVDM,1,1,,A,B<eLiW@0<7tJj26itGl8`6v000000,0*4A
$GPRMC,192749.00,A,4732.997764927932,N,301.4816395080353,W,13.76,231.7,160524,,,A*73
!AIVDM,1,1,,A,B6k`<500OGtgAM6ja7>trGN000000,0*7C
!AIVDM,1,1,,A,B;3O78h0EWtO3U6j?AG3:LN000000,0*55
!AIVDM,1,1,,A,B;e1i4@0b7taCdVk0pmwIUv000000,0*4C
!AIVDM,1,1,,A,B4jh@jh08WtLF:6jQ;q1hlv000000,0*F
$GPRMC,192751.00,A,4732.993517261223,N,301.48930462179845,W,13.36,232.9,160524,,,A*4A
$GPRMC,192752.00,A,4732.989269586001,N,301.49696971485395,W,11.66,231.6,160524,,,A*46
$GPRMC,192753.00,A,4732.985021902267,N,301.5046347872018,W,13.72,229.2,160524,,,A*73
$GPRMC,192755.00,A,4732.980774210023,N,301.512299838842,W,11.99,228.4,160524,,,A*47
$GPRMC,192756.00,A,4732.976526509267,N,301.5199648697748,W,11.86,229.6,160524,,,A*7C
!AIVDM,1,1,,A,B2<Kt0@0AGtc@bVjN2gM2hv000000,0*60
$GPRMC,192757.00,A,4732.9722788,N,301.52762988,W,12.37,224,160524,,,A*6E
!AIVDM,1,1,,A,B7vvR<@0?Wtgkd6jAWuleMN000000,0*C
$GPRMC,192758.00,A,4732.969934374816,N,301.5312058498858,W,10.11,227.7,160524,,,A*76
!AIVDM,1,1,,A,B;hTAP00B7tVs06jjMv<qhv000000,0*38
$GPRMC,192759.00,A,4732.965245518891,N,301.5383577736614,W,13.52,225.6,160524,,,A*73
!AIVDM,1,1,,A,B3nIVNh0Sotci2Vk@r>HmrN000000,0*68
!AIVDM,1,1,,A,B2HLCnh0MGtghPVj=`AeIGv000000,0*3B
!AIVDM,1,1,,A,B2c2MRh0UGtPgw6iFeIH56N000000,0*56
!AIVDM,1,1,,A,B6k`<500S7tg9A6jaQ6rnEN000000,0*12
$GPRMC,192801.00,A,4732.960556655555,N,301.54550967610936,W,9.87,224.6,160524,,,A*77
!AIVDM,1,1,,A,B>G68W00>Gtf0?VirWI3tnN000000,0*14
!AIVDM,1,1,,A,B4jh@jh0CWtLI`6jQ691dlv000000,0*68
$GPRMC,192802.00,A,4732.955867784808,N,301.55266155722956,W,12.15,228,160524,,,A*5C
$GPRMC,192803.00,A,4732.951178906653,N,301.55981341702227,W,12.55,225.9,160524,,,A*4E
!AIVDM,1,1,,A,B<eLiW@0=otJk6Vitf`846N000000,0*37
!AIVDM,1,1,,A,B;e1i4@0aGta>p6k03j1IWv000000,0*36
!AIVDM,1,1,,A,5;e1i4D00001<To337;79<Tl4U<0000000000016000000000;000000000000000000000,0*4
!AIVDM,1,1,,A,B;3O78h0AWtO0G6j?Pk1nKN000000,0*2C
$GPRMC,192805.00,A,4732.946490021088,N,301.56696525548745,W,9.93,224.7,160524,,,A*7D
$GPRMC,192806.00,A,4732.941801128113,N,301.5741170726252,W,13.81,224.9,160524,,,A*70
$GPRMC,192808.00,A,4732.937112227728,N,301.58126886843564,W,11.51,223.6,160524,,,A*40
!AIVDM,1,1,,A,B2<Kt0@0EGtc@A6jNKgOFjv000000,0*2A
$GPRMC,192809.00,A,4732.932423319933,N,301.58842064291883,W,12.31,224.3,160524,,,A*42
$GPRMC,192810.00,A,4732.927734404729,N,301.59557239607494,W,12.76,223.4,160524,,,A*45
!AIVDM,1,1,,A,B6k`<500SGtg15Vjarvu2GN000000,0*44
!AIVDM,1,1,,A,B2c2MRh0dGtPmwViF2aHM6v000000,0*32
!AIVDM,1,1,,A,B7vvR<@07GtgkHVjAEElMMN000000,0*52
$GPRMC,192811.00,A,4732.9230454821145,N,301.60272412790397,W,11.65,227.6,160524,,,A*7B
$GPRMC,192813.00,A,4732.91835655209,N,301.609875838406,W,13.67,223.4,160524,,,A*73
!AIVDM,1,1,,A,B>G68W00:7tf2gVirSI3Lmv000000,0*3D
!AIVDM,1,1,,A,B;hTAP00LGtVne6jj5J:igN000000,0*63
!AIVDM,1,1,,A,B3nIVNh0UWtc`66k@R2HarN000000,0*1B
$GPRMC,192814.00,A,4732.913667614657,N,301.6170275275812,W,10.25,226.6,160524,,,A*79
!AIVDM,1,1,,A,B4jh@jh09WtLM6VjQ0E4<nv000000,0*5
!AIVDM,1,1,,A,B;e1i4@0`7ta:3Vjw>j<9hN000000,0*51
!AIVDM,1,1,,A,B2HLCnh0F7tghn6j=5=fqHv000000,0*3
$GPRMC,192815.00,A,4732.908978669813,N,301.6241791954296,W,12.63,225.1,160524,,,A*73
$GPRMC,192816.00,A,4732.904289717562,N,301.6313308419513,W,10.68,225.9,160524,,,A*77
$GPRMC,192817.00,A,4732.8996007579,N,301.63848246714633,W,11.47,223.5,160524,,,A*4E
!AIVDM,1,1,,A,B;3O78h0B7tNu96j?h;3nLv000000,0*20
!AIVDM,1,1,,A,B<eLiW@0EWtJl:Viu5L987N000000,0*E
!AIVDM,1,1,,A,5<eLiWD00001<To33H33I<Tl4U<000000000000N000000000;000000000000000000000,0*67
$GPRMC,192819.00,A,4732.894911790828,N,301.64563407101485,W,14.47,224.1,160524,,,A*49
!AIVDM,1,1,,A,B2<Kt0@0F7tc?p6jNlkMFiN000000,0*5
$GPRMC,192820.00,A,4732.890222816348,N,301.65278565355703,W,11.22,225.1,160524,,,A*40
!AIVDM,1,1,,A,B6k`<500SGtfpqVjbDnsFEv000000,0*25
!AIVDM,1,1,,A,B2c2MRh0U7tPt0ViEGmHm7N000000,0*4E
$GPRMC,192822.00,A,4732.885533834458,N,301.6599372147728,W,12.04,225.6,160524,,,A*72
!AIVDM,1,1,,A,B7vvR<@0@Wtgk4VjA2elMMN000000,0*1E
$GPRMC,192823.00,A,4732.880844845158,N,301.6670887546623,W,10.39,226.2,160524,,,A*79
!AIVDM,1,1,,A,B3nIVNh0SWtcO96k@9nGaqN000000,0*6
$GPRMC,192824.00,A,4732.87615584845,N,301.6742402732257,W,11.8,223.6,160524,,,A*7B
!AIVDM,1,1,,A,B>G68W00>otf5?VirOM30mv000000,0*5A
$GPRMC,192825.00,A,4732.871466844332,N,301.68139177046294,W,13.92,227.6,160524,,,A*4C
!AIVDM,1,1,,A,B;e1i4@0dGta5O6jvlb;=gN000000,0*61
!AIVDM,1,1,,A,5;e1i4D00001<To337;79<Tl4U<0000000000016000000000;000000000000000000000,0*4
!AIVDM,1,1,,A,B2HLCnh0D7tgi<6j<R9gIIN000000,0*30
!AIVDM,1,1,,A,B;hTAP00MGtVjIVjidj:ugN000000,0*44
$GPRMC,192826.00,A,4732.866777832805,N,301.6885432463742,W,12.29,225.8,160524,,,A*76
!AIVDM,1,1,,A,B4jh@jh0>WtLPTVjPrQ20lv000000,0*22
$GPRMC,192828.00,A,4732.862088813869,N,301.69569470095956,W,12.35,224.5,160524,,,A*45
$GPRMC,192829.00,A,4732.857399787524,N,301.70284613421916,W,11.06,223.9,160524,,,A*4B
!AIVDM,1,1,,A,B<eLiW@0F7tJm?6iuL@8p7N000000,0*35
$GPRMC,192830.00,A,4732.85271075377,N,301.7099975461529,W,11.51,227.9,160524,,,A*4A
$GPRMC,192831.00,A,4732.848021712607,N,301.71714893676113,W,10.42,223.7,160524,,,A*4B
!AIVDM,1,1,,A,B;3O78h0EotNqrVj?wW1jKN000000,0*1A
!AIVDM,1,1,,A,B2c2MRh0b7tQ216iDe5J58N000000,0*71
$GPRMC,192833.00,A,4732.843332664035,N,301.72430030604374,W,10.45,224.6,160524,,,A*44
!AIVDM,1,1,,A,B6k`<500PGtfheVjbfbsbFN000000,0*1B
!AIVDM,1,1,,A,B2<Kt0@0A7tc?O6jO=kMjiN000000,0*41
$GPRMC,192834.00,A,4732.838643608055,N,301.73145165400086,W,9.66,225.3,160524,,,A*72
!AIVDM,1,1,,A,B3nIVNh0WGtcF<6k?ifHirN000000,0*3D
$GPRMC,192835.00,A,4732.833954544664,N,301.7386029806327,W,9.58,223.3,160524,,,A*40
!AIVDM,1,1,,A,B7vvR<@0@otgjhVj@h5laMN000000,0*5C
$GPRMC,192837.00,A,4732.829265473866,N,301.7457542859392,W,11.13,228.2,160524,,,A*72
$GPRMC,192838.00,A,4732.8245763956575,N,301.7529055699205,W,13.43,226.8,160524,,,A*46
!AIVDM,1,1,,A,B>G68W007otf7gVirKM1llv000000,0*52
!AIVDM,1,1,,A,B;hTAP00AWtVf6VjiD>:mgN000000,0*47
!AIVDM,1,1,,A,B;e1i4@0b7t`oi6juVF:=fv000000,0*4F
!AIVDM,1,1,,A,B4jh@jh0>WtLT2VjPle1dlv000000,0*3D
$GPRMC,192839.00,A,4732.819887310042,N,301.76005683257665,W,11.94,226.8,160524,,,A*4C
!AIVDM,1,1,,A,B2HLCnh0L7tgiR6j;w5fMHN000000,0*7C
!AIVDM,1,1,,A,B<eLiW@0@otJmiViuWd9T7v000000,0*7F
$GPRMC,192840.00,A,4732.8151982170175,N,301.76720807390785,W,10.17,225.9,160524,,,A*75
$GPRMC,192842.00,A,4732.810509116584,N,301.7743592939141,W,12.78,226.4,160524,,,A*76
!AIVDM,1,1,,A,B;3O78h0@WtNndVj@>w4>Lv000000,0*56
$GPRMC,192843.00,A,4732.805820008742,N,301.7815104925955,W,13.75,226.6,160524,,,A*7A
$GPRMC,192844.00,A,4732.801130893491,N,301.78866166995215,W,13.24,225.6,160524,,,A*4D
!AIVDM,1,1,,A,B2c2MRh0c7tQ826iD2AHq7N000000,0*13
!AIVDM,1,1,,A,B3nIVNh0V7tc=?Vk?IRHmrN000000,0*44
$GPRMC,192845.00,A,4732.796441770833,N,301.7958128259841,W,10.45,223.6,160524,,,A*74
!AIVDM,1,1,,A,B2<Kt0@0@7tc?66jOVkORjv000000,0*53
$GPRMC,192846.00,A,4732.791752640765,N,301.80296396069144,W,10.05,225.5,160524,,,A*42
!AIVDM,1,1,,A,B6k`<500S7tf`R6jc8Rt>Fv000000,0*3B
$GPRMC,192848.00,A,4732.787063503288,N,301.81011507407436,W,9.75,224.5,160524,,,A*7C
$GPRMC,192849.00,A,4732.782374358405,N,301.81726616613287,W,9.91,227.4,160524,,,A*75
!AIVDM,1,1,,A,B>G68W005otf:@6irGM2lmN000000,0*2C
!AIVDM,1,1,,A,B;e1i4@0aot`kdVju?:<mhv000000,0*30
!AIVDM,1,1,,A,B4jh@jh0<otLWPVjPfq2DmN000000,0*62
$GPRMC,192850.00,A,4732.777685206111,N,301.824417236867,W,12.81,224.3,160524,,,A*49
!AIVDM,1,1,,A,B7vvR<@0;GtgjM6j@MMk1LN000000,0*41
!AIVDM,1,1,,A,B;hTAP00GGtVakVjhsb:Afv000000,0*74
!AIVDM,1,1,,A,H;hTAP0,0*48
$GPRMC,192851.00,A,4732.77299604641,N,301.831568286277,W,10.84,224.2,160524,,,A*79
$GPRMC,192852.00,A,4732.768306879301,N,301.8387193143628,W,12.71,224,160524,,,A*6F
!AIVDM,1,1,,A,B<eLiW@0DotJnn6iuvT8h7N000000,0*B
!AIVDM,1,1,,A,B;3O78h0;otNkN6j@NK22KN000000,0*23
!AIVDM,1,1,,A,H;3O78h,0*4E
!AIVDM,1,1,,A,B2HLCnh0I7tgioVj;L1gmIN000000,0*3B
$GPRMC,192854.00,A,4732.763617704783,N,301.8458703211245,W,9.91,225.8,160524,,,A*4E
$GPRMC,192855.00,A,4732.758928522857,N,301.8530213065623,W,13.19,224.8,160524,,,A*70
!AIVDM,1,1,,A,B3nIVNh0RGtc4BVk?1FHEqv000000,0*3B
$GPRMC,192856.00,A,4732.754239333523,N,301.86017227067623,W,10.47,225.5,160524,,,A*4B
!AIVDM,1,1,,A,B2c2MRh0QotQ>2ViCGQI57N000000,0*38
$GPRMC,192858.00,A,4732.74955013678,N,301.86732321346636,W,11.77,227.6,160524,,,A*7D
$GPRMC,192859.00,A,4732.74486093263,N,301.8744741349328,W,11.41,226.1,160524,,,A*4A
!AIVDM,1,1,,A,B6k`<500bGtfPF6jcRJsvFN000000,0*5B
$GPRMC,192900.00,A,4732.740171721072,N,301.8816250350756,W,9.52,228,160524,,,A*54
!AIVDM,1,1,,A,B2<Kt0@0Botc>e6jOwkO:jv000000,0*12
!AIVDM,1,1,,A,B>G68W00=7tf<h6irCQ30mv000000,0*2F
$GPRMC,192901.00,A,4732.735482502107,N,301.8887759138949,W,12.61,224,160524,,,A*60
!AIVDM,1,1,,A,B;e1i4@0aot`cTVjtPj;5gN000000,0*5E
$GPRMC,192902.00,A,4732.730793275732,N,301.8959267713908,W,10.59,226.6,160524,,,A*71
!AIVDM,1,1,,A,B;hTAP00BotVUP6jhS6=1hv000000,0*3B
$GPRMC,192903.00,A,4732.726104041951,N,301.9030776075633,W,10.57,224.7,160524,,,A*7E
!AIVDM,1,1,,A,B7vvR<@0=7tgj96j@:mjaKv000000,0*7A
!AIVDM,1,1,,A,B4jh@jh0CWtLbvVjPa52lmN000000,0*5D
$GPRMC,192904.00,A,4732.721414800761,N,301.9102284224126,W,11.83,225.8,160524,,,A*71
!AIVDM,1,1,,A,B2HLCnh0MGtgj=Vj:puf9HN000000,0*33
$GPRMC,192905.00,A,4732.716725552164,N,301.9173792159387,W,13.78,226,160524,,,A*6B
!AIVDM,1,1,,A,B<eLiW@0;7tJorVivEH7p6N000000,0*6B
!AIVDM,1,1,,A,B;3O78h0DotNf`Vj@mP@t=v000000,0*5D
$GPRMC,192907.00,A,4732.712036296159,N,301.9245299881417,W,11.64,226.6,160524,,,A*74
!AIVDM,1,1,,A,B3nIVNh0`WtbsEVk>a>H9qv000000,0*D
$GPRMC,192908.00,A,4732.707347032745,N,301.9316807390218,W,11.59,224.1,160524,,,A*7E
$GPRMC,192909.00,A,4732.702657761924,N,301.9388314685789,W,11.11,227.9,160524,,,A*73
$GPRMC,192910.00,A,4732.697968483696,N,301.9459821768132,W,13.34,227,160524,,,A*6C
!AIVDM,1,1,,A,B2c2MRh0PGtQD36iBdiGe6N000000,0*4F
$GPRMC,192912.00,A,4732.693279198059,N,301.9531328637248,W,12.64,228.3,160524,,,A*75
!AIVDM,1,1,,A,B2<Kt0@0=Gtc>D6jPHkONjv000000,0*30
!AIVDM,1,1,,A,B6k`<500SotfH:6jct>r:Dv000000,0*3
$GPRMC,192913.00,A,4732.688589905018,N,301.96028352931376,W,10.16,226.1,160524,,,A*47
$GPRMC,192914.00,A,4732.683900604566,N,301.9674341735801,W,13.27,223.8,160524,,,A*73
!AIVDM,1,1,,A,B>G68W006Wtf?@6ir?Q2PmN000000,0*4A
!AIVDM,1,1,,A,B;hTAP00AGtVSFVjhFj<ihv000000,0*70
$GPRMC,192915.00,A,4732.67686664,N,301.9781601,W,12.91,215.2,160524,,,A*7D
!AIVDM,1,1,,A,B7vvR<@0:otgim6j?p=jiKv000000,0*1F
$GPRMC,192916.00,A,4732.674057611231,N,301.9808790961278,W,12.32,212.5,160524,,,A*7F
!AIVDM,1,1,,A,B;e1i4@0Sot`SLVjsjJ<AhN000000,0*25
!AIVDM,1,1,,A,B4jh@jh087tLfM6jPSA1`lv000000,0*69
!AIVDM,1,1,,A,B2HLCnh0KotgjSVj:EqgqIv000000,0*32
$GPRMC,192917.00,A,4732.668439550479,N,301.9863170738131,W,13.53,214.1,160524,,,A*7E
!AIVDM,1,1,,A,B<eLiW@0=WtJpwVivd@9D7N000000,0*5
$GPRMC,192919.00,A,4732.662821485444,N,301.9917550320714,W,11.28,212.7,160524,,,A*7E
$GPRMC,192920.00,A,4732.657203416124,N,301.99719297090303,W,11.55,213.7,160524,,,A*45
$GPRMC,192921.00,A,4732.651585342521,N,302.0026308903079,W,10.52,211,160524,,,A*63
!AIVDM,1,1,,A,B3nIVNh0PGtbjI6k>A2HurN000000,0*3
$GPRMC,192922.00,A,4732.645967264632,N,302.00806879028625,W,13.5,213.2,160524,,,A*76
!AIVDM,1,1,,A,B2c2MRh0PGtQJ46iB1uJ98N000000,0*50
!AIVDM,1,1,,A,B2<Kt0@0<Wtc=rVjPikO>jv000000,0*25
$GPRMC,192924.00,A,4732.640349182461,N,302.0135066708382,W,13.42,213.8,160524,,,A*77
!AIVDM,1,1,,A,B>G68W00?otfAh6ir;Q1TlN000000,0*2F
$GPRMC,192925.00,A,4732.634731096006,N,302.01894453196377,W,13.99,214.4,160524,,,A*48
$GPRMC,192926.00,A,4732.629113005267,N,302.0243823736632,W,13.41,213.8,160524,,,A*72
!AIVDM,1,1,,A,B;hTAP00JGtVO3Vjgv>;1gN000000,0*11
!AIVDM,1,1,,A,B;e1i4@0V7t`KD6js3v<mhv000000,0*79
!AIVDM,1,1,,A,5;e1i4D00001<To337;79<Tl4U<0000000000016000000000;000000000000000000000,0*4
!AIVDM,1,1,,A,B7vvR<@0:7tgiQVj?UUm=Mv000000,0*3
!AIVDM,1,1,,A,B6k`<500`otf?v6jdF6tVFv000000,0*5E
$GPRMC,192927.00,A,4732.623494910244,N,302.02982019593645,W,12.14,210.8,160524,,,A*45
!AIVDM,1,1,,A,B4jh@jh0=WtLis6jPMM3tnN000000,0*3
$GPRMC,192929.00,A,4732.617876810937,N,302.03525799878383,W,10.31,213.4,160524,,,A*40
!AIVDM,1,1,,A,B2HLCnh0CGtgjq6j9jmfQHN000000,0*78
$GPRMC,192930.00,A,4732.612258707346,N,302.0406957822053,W,12.15,215,160524,,,A*68
$GPRMC,192931.00,A,4732.606640599471,N,302.0461335462011,W,13.21,213.2,160524,,,A*7A
!AIVDM,1,1,,A,B;3O78h0AWtNiKVjAE@?t<v000000,0*3
!AIVDM,1,1,,A,B<eLiW@0DotJr46iw34:H8N000000,0*47
$GPRMC,192933.00,A,4732.601022487313,N,302.0515712907713,W,14,213,160524,,,A*4E
!AIVDM,1,1,,A,B3nIVNh0RGtbaL6k=pnGmqN000000,0*75
!AIVDM,1,1,,A,53nIVNl00001<To33@33A<Tl4U<000000000000N000000000;000000000000000000000,0*68
$GPRMC,192934.00,A,4732.595404370872,N,302.0570090159159,W,10.68,214.6,160524,,,A*7A
!AIVDM,1,1,,A,B2c2MRh0T7tQP4ViAG=Gm6N000000,0*34
!AIVDM,1,1,,A,B2<Kt0@0GWtc=QVjQ:kNvjN000000,0*5E
$GPRMC,192935.00,A,4732.589786250146,N,302.06244672163524,W,10.15,214.1,160524,,,A*44
$GPRMC,192937.00,A,4732.584168125136,N,302.0678844079293,W,14.41,213.6,160524,,,A*79
$GPRMC,192938.00,A,4732.578549995844,N,302.0733220747982,W,11.32,213.3,160524,,,A*7E
!AIVDM,1,1,,A,B6k`<500P7tf7j6jdgvsNEv000000,0*5F
!AIVDM,1,1,,A,B>G68W00:otfD@6ir7U2LmN000000,0*15
$GPRMC,192939.00,A,4732.572931862267,N,302.0787597222421,W,9.75,215.4,160524,,,A*49
!AIVDM,1,1,,A,B7vvR<@0A7tgi=Vj?BukMLN000000,0*6C
$GPRMC,192940.00,A,4732.5673137244075,N,302.08419735026115,W,10.02,211.7,160524,,,A*7C
!AIVDM,1,1,,A,B2HLCnh0C7tgk?6j9?ih1Iv000000,0*41
!AIVDM,1,1,,A,B;hTAP00CotVJh6jgUb;Mgv000000,0*35
$GPRMC,192941.00,A,4732.561695582264,N,302.0896349588553,W,10.72,214.4,160524,,,A*72
!AIVDM,1,1,,A,B;e1i4@0TGt`C<6jrEV;AgN000000,0*30
!AIVDM,1,1,,A,B4jh@jh087tLmI6jPGa4Pnv000000,0*65
$GPRMC,192942.00,A,4732.556077435837,N,302.0950725480249,W,12.19,210.8,160524,,,A*79
$GPRMC,192943.00,A,4732.550459285126,N,302.10051011776994,W,13.6,211.9,160524,,,A*75
!AIVDM,1,1,,A,B;3O78h0>WtNkBVjAbL@p=v000000,0*26
$GPRMC,192944.00,A,4732.544841130133,N,302.1059476680905,W,10.04,213.1,160524,,,A*7D
!AIVDM,1,1,,A,B2<Kt0@0AGtc=8VjQSoM:hv000000,0*39
$GPRMC,192945.00,A,4732.539222970856,N,302.11138519898674,W,11.5,212.8,160524,,,A*76
